$GPGGA,153230.369,1049.381,N,10641.515,E,1,12,1.0,0.0,M,0.0,M,,*61
$GPGSA,A,3,01,02,03,04,05,06,07,08,09,10,11,12,1.0,1.0,1.0*30
$GPRMC,153230.369,A,1049.381,N,10641.515,E,023.8,048.4,290419,000.0,W*73
$GPGGA,153231.369,1049.385,N,10641.520,E,1,12,1.0,0.0,M,0.0,M,,*62
$GPGSA,A,3,01,02,03,04,05,06,07,08,09,10,11,12,1.0,1.0,1.0*30
$GPRMC,153231.369,A,1049.385,N,10641.520,E,030.2,046.3,290419,000.0,W*71
$GPGGA,153232.369,1049.391,N,10641.526,E,1,12,1.0,0.0,M,0.0,M,,*62
$GPGSA,A,3,01,02,03,04,05,06,07,08,09,10,11,12,1.0,1.0,1.0*30
$GPRMC,153232.369,A,1049.391,N,10641.526,E,024.2,041.7,290419,000.0,W*77
$GPGGA,153233.369,1049.396,N,10641.530,E,1,12,1.0,0.0,M,0.0,M,,*63
$GPGSA,A,3,01,02,03,04,05,06,07,08,09,10,11,12,1.0,1.0,1.0*30
$GPRMC,153233.369,A,1049.396,N,10641.530,E,020.2,040.9,290419,000.0,W*7D
$GPGGA,153234.369,1049.401,N,10641.534,E,1,12,1.0,0.0,M,0.0,M,,*69
$GPGSA,A,3,01,02,03,04,05,06,07,08,09,10,11,12,1.0,1.0,1.0*30
$GPRMC,153234.369,A,1049.401,N,10641.534,E,033.8,044.1,290419,000.0,W*73
$GPGGA,153235.369,1049.407,N,10641.540,E,1,12,1.0,0.0,M,0.0,M,,*6D
$GPGSA,A,3,01,02,03,04,05,06,07,08,09,10,11,12,1.0,1.0,1.0*30
$GPRMC,153235.369,A,1049.407,N,10641.540,E,045.9,126.9,290419,000.0,W*7A
$GPGGA,153236.369,1049.400,N,10641.551,E,1,12,1.0,0.0,M,0.0,M,,*69
$GPGSA,A,3,01,02,03,04,05,06,07,08,09,10,11,12,1.0,1.0,1.0*30
$GPRMC,153236.369,A,1049.400,N,10641.551,E,070.4,128.6,290419,000.0,W*74
$GPGGA,153237.369,1049.387,N,10641.566,E,1,12,1.0,0.0,M,0.0,M,,*64
$GPGSA,A,3,01,02,03,04,05,06,07,08,09,10,11,12,1.0,1.0,1.0*30
$GPRMC,153237.369,A,1049.387,N,10641.566,E,044.7,132.9,290419,000.0,W*79
$GPGGA,153238.369,1049.379,N,10641.575,E,1,12,1.0,0.0,M,0.0,M,,*68
$GPGSA,A,3,01,02,03,04,05,06,07,08,09,10,11,12,1.0,1.0,1.0*30
$GPRMC,153238.369,A,1049.379,N,10641.575,E,031.1,130.8,290419,000.0,W*72
$GPGGA,153239.369,1049.373,N,10641.582,E,1,12,1.0,0.0,M,0.0,M,,*6B
$GPGSA,A,3,01,02,03,04,05,06,07,08,09,10,11,12,1.0,1.0,1.0*30
$GPRMC,153239.369,A,1049.373,N,10641.582,E,046.5,140.0,290419,000.0,W*7A
$GPGGA,153240.369,1049.363,N,10641.590,E,1,12,1.0,0.0,M,0.0,M,,*67
$GPGSA,A,3,01,02,03,04,05,06,07,08,09,10,11,12,1.0,1.0,1.0*30
$GPRMC,153240.369,A,1049.363,N,10641.590,E,045.6,150.4,290419,000.0,W*73
$GPGGA,153241.369,1049.352,N,10641.597,E,1,12,1.0,0.0,M,0.0,M,,*63
$GPGSA,A,3,01,02,03,04,05,06,07,08,09,10,11,12,1.0,1.0,1.0*30
$GPRMC,153241.369,A,1049.352,N,10641.597,E,039.2,151.9,290419,000.0,W*74
$GPGGA,153242.369,1049.342,N,10641.602,E,1,12,1.0,0.0,M,0.0,M,,*6E
$GPGSA,A,3,01,02,03,04,05,06,07,08,09,10,11,12,1.0,1.0,1.0*30
$GPRMC,153242.369,A,1049.342,N,10641.602,E,036.0,161.3,290419,000.0,W*7D
$GPGGA,153243.369,1049.333,N,10641.605,E,1,12,1.0,0.0,M,0.0,M,,*6E
$GPGSA,A,3,01,02,03,04,05,06,07,08,09,10,11,12,1.0,1.0,1.0*30
$GPRMC,153243.369,A,1049.333,N,10641.605,E,017.5,166.6,290419,000.0,W*79
$GPGGA,153244.369,1049.328,N,10641.606,E,1,12,1.0,0.0,M,0.0,M,,*60
$GPGSA,A,3,01,02,03,04,05,06,07,08,09,10,11,12,1.0,1.0,1.0*30
$GPRMC,153244.369,A,1049.328,N,10641.606,E,027.6,248.5,290419,000.0,W*7B
$GPGGA,153245.369,1049.325,N,10641.599,E,1,12,1.0,0.0,M,0.0,M,,*69
$GPGSA,A,3,01,02,03,04,05,06,07,08,09,10,11,12,1.0,1.0,1.0*30
$GPRMC,153245.369,A,1049.325,N,10641.599,E,054.5,244.4,290419,000.0,W*78
$GPGGA,153246.369,1049.319,N,10641.585,E,1,12,1.0,0.0,M,0.0,M,,*68
$GPGSA,A,3,01,02,03,04,05,06,07,08,09,10,11,12,1.0,1.0,1.0*30
$GPRMC,153246.369,A,1049.319,N,10641.585,E,015.0,261.4,290419,000.0,W*7E
$GPGGA,153247.369,1049.318,N,10641.581,E,1,12,1.0,0.0,M,0.0,M,,*6C
$GPGSA,A,3,01,02,03,04,05,06,07,08,09,10,11,12,1.0,1.0,1.0*30
$GPRMC,153247.369,A,1049.318,N,10641.581,E,049.7,343.8,290419,000.0,W*79
$GPGGA,153248.369,1049.331,N,10641.577,E,1,12,1.0,0.0,M,0.0,M,,*61
$GPGSA,A,3,01,02,03,04,05,06,07,08,09,10,11,12,1.0,1.0,1.0*30
$GPRMC,153248.369,A,1049.331,N,10641.577,E,038.5,071.3,290419,000.0,W*79
$GPGGA,153249.369,1049.335,N,10641.587,E,1,12,1.0,0.0,M,0.0,M,,*6B
$GPGSA,A,3,01,02,03,04,05,06,07,08,09,10,11,12,1.0,1.0,1.0*30
$GPRMC,153249.369,A,1049.335,N,10641.587,E,051.0,070.1,290419,000.0,W*7A
$GPGGA,153250.369,1049.340,N,10641.601,E,1,12,1.0,0.0,M,0.0,M,,*6C
$GPGSA,A,3,01,02,03,04,05,06,07,08,09,10,11,12,1.0,1.0,1.0*30
$GPRMC,153250.369,A,1049.340,N,10641.601,E,038.9,159.1,290419,000.0,W*71
$GPGGA,153251.369,1049.330,N,10641.605,E,1,12,1.0,0.0,M,0.0,M,,*6E
$GPGSA,A,3,01,02,03,04,05,06,07,08,09,10,11,12,1.0,1.0,1.0*30
$GPRMC,153251.369,A,1049.330,N,10641.605,E,039.9,092.4,290419,000.0,W*71
$GPGGA,153252.369,1049.329,N,10641.616,E,1,12,1.0,0.0,M,0.0,M,,*67
$GPGSA,A,3,01,02,03,04,05,06,07,08,09,10,11,12,1.0,1.0,1.0*30
$GPRMC,153252.369,A,1049.329,N,10641.616,E,026.6,080.3,290419,000.0,W*7D
$GPGGA,153253.369,1049.330,N,10641.623,E,1,12,1.0,0.0,M,0.0,M,,*68
$GPGSA,A,3,01,02,03,04,05,06,07,08,09,10,11,12,1.0,1.0,1.0*30
$GPRMC,153253.369,A,1049.330,N,10641.623,E,033.2,074.3,290419,000.0,W*79
$GPGGA,153254.369,1049.333,N,10641.632,E,1,12,1.0,0.0,M,0.0,M,,*6C
$GPGSA,A,3,01,02,03,04,05,06,07,08,09,10,11,12,1.0,1.0,1.0*30
$GPRMC,153254.369,A,1049.333,N,10641.632,E,033.2,074.3,290419,000.0,W*7D
